id,country,city_name,lat,lng,alt,population,utc
3041563,AD,Andorra la Vella,42.50779,1.52109,1037,20430,1
292223,AE,Dubai,25.0657,55.17128,3,1137347,4
1138958,AF,Kabul,34.52813,69.17233,1798,3043532,4.5
1138336,AF,Kandahar,31.61332,65.71013,1007,391190,4.5
1133616,AF,Mazar-e Sharif,36.70904,67.11087,361,303282,4.5
1140026,AF,Herat,34.34817,62.19967,927,272806,4.5
1139715,AF,Jalalabad,34.42647,70.45153,575,200331,4.5
1135689,AF,Kunduz,36.72895,68.857,402,161902,4.5
1141269,AF,Ghazni,33.55391,68.42096,2179,141000,4.5
1147290,AF,Balkh,36.75635,66.8972,348,114883,4.5
3576022,AG,Saint John's,17.11717,-61.84573,4,24226,-4
3573374,AI,The Valley,18.21704,-63.05783,7,2035,-4
3183875,AL,Tirana,41.3275,19.81889,113,374801,1
616052,AM,Yerevan,40.18111,44.51361,994,1093485,4
2240449,AO,Luanda,-8.83682,13.23432,73,2776168,1
2239076,AO,N'dalatando,-9.29782,14.91162,795,383100,1
3348313,AO,Huambo,-12.77611,15.73917,1716,226145,1
3347939,AO,Lobito,-12.3644,13.53601,4,207932,1
3351663,AO,Benguela,-12.57626,13.40547,11,151226,1
3348078,AO,Cuito,-12.38333,16.93333,1715,113624,1
3435910,AR,Buenos Aires,-34.61315,-58.37723,31,13076300,-3
3860259,AR,Cordoba,-31.4135,-64.18105,395,1428214,-3
3838583,AR,Rosario,-32.94682,-60.63932,38,1173533,-3
3844421,AR,Mendoza,-32.89084,-68.82717,746,876884,-3
3836873,AR,San Miguel de Tucuman,-26.82414,-65.2226,452,781023,-3
3432043,AR,La Plata,-34.92145,-57.95453,27,694167,-3
3430863,AR,Mar del Plata,-38.00228,-57.55754,15,553935,-3
3429652,AR,Quilmes,-34.72418,-58.25265,24,518788,-3
3838233,AR,Salta,-24.7859,-65.41166,1183,512686,-3
5881576,AS,Pago Pago,-14.27806,-170.7025,2,11500,-11
2761369,AT,Vienna,48.20849,16.37208,171,1691468,1
2147714,AU,Sydney,-33.86785,151.20732,58,4627345,10
2158177,AU,Melbourne,-37.814,144.96332,25,4246375,10
2174003,AU,Brisbane,-27.46794,153.02809,27,2189878,10
2063523,AU,Perth,-31.95224,115.8614,34,1896548,8
2078025,AU,Adelaide,-34.92866,138.59863,59,1225235,9.5
2165087,AU,Gold Coast,-28.00029,153.43088,12,591473,10
2172517,AU,Canberra,-35.28346,149.12807,571,367752,10
2155472,AU,Newcastle,-32.92715,151.77647,21,308308,10
2171507,AU,Wollongong,-34.424,150.89345,29,292190,10
7281838,AU,Logan City,-27.63917,153.10944,39,282673,10
2165798,AU,Geelong,-38.14711,144.36069,23,226034,10
2163355,AU,Hobart,-42.87936,147.32941,19,216656,10
3577277,AW,Babijn,12.53333,-69.98333,28,40627,-4
3041732,AX,Mariehamn,60.09726,19.93481,11,10682,2
587084,AZ,Baku,40.37767,49.89201,-23,1116513,4
3191281,BA,Sarajevo,43.84864,18.35644,509,696731,1
3374036,BB,Bridgetown,13.1,-59.61667,10,98511,-4
1185241,BD,Dhaka,23.7104,90.40744,23,10356500,6
2800866,BE,Brussels,50.85045,4.34878,28,1019022,1
2357048,BF,Ouagadougou,12.36566,-1.53388,299,1086505,0
2362344,BF,Bobo-Dioulasso,11.17715,-4.2979,423,360106,0
2358946,BF,Koudougou,12.25263,-2.36272,303,87347,0
2357043,BF,Ouahigouya,13.58278,-2.42158,328,61096,0
2362909,BF,Banfora,10.63333,-4.76667,299,60288,0
727011,BG,Sofia,42.69751,23.32415,562,1152556,2
290340,BH,Manama,26.21536,50.5832,5,147074,3
425378,BI,Bujumbura,-3.3822,29.3644,805,331700,2
2394819,BJ,Cotonou,6.36536,2.41833,7,780000,1
2395914,BJ,Abomey-Calavi,6.44852,2.35566,11,385755,1
3579132,BL,Gustavia,17.89618,-62.84978,6,5988,-4
3573061,BM,Saint George,32.38167,-64.67806,16,1896,-4
1820906,BN,Bandar Seri Begawan,4.94029,114.94806,16,64409,8
3904906,BO,Santa Cruz de la Sierra,-17.78629,-63.18117,433,1364389,-4
3919968,BO,Cochabamba,-17.3895,-66.1568,2577,900414,-4
3911925,BO,La Paz,-16.5,-68.15,3782,812799,-4
3903987,BO,Sucre,-19.03332,-65.26274,2798,224838,-4
3909234,BO,Oruro,-17.98333,-67.15,3936,208684,-4
3903320,BO,Tarija,-21.53549,-64.72956,1870,159269,-4
3907584,BO,Potosi,-19.58361,-65.75306,3967,141251,-4
3910027,BO,Montero,-17.33866,-63.2505,300,88616,-4
3902377,BO,Trinidad,-14.83333,-64.9,159,84259,-4
3513563,BQ,Kralendijk,12.15,-68.26667,4,3081,-4
3448439,BR,Sao Paulo,-23.5475,-46.63611,769,10021295,-3
3451190,BR,Rio de Janeiro,-22.90278,-43.2075,5,6023699,-3
3450554,BR,Salvador,-12.97111,-38.51083,10,2711840,-3
3399415,BR,Fortaleza,-3.71722,-38.54306,18,2400000,-3
3470127,BR,Belo Horizonte,-19.92083,-43.93778,888,2373224,-3
3469058,BR,Brasilia,-15.77972,-47.92972,1136,2207718,-3
3464975,BR,Curitiba,-25.42778,-49.27306,924,1718421,-3
3663517,BR,Manaus,-3.10194,-60.025,20,1598210,-4
3390760,BR,Recife,-8.05389,-34.88111,8,1478098,-3
3405870,BR,Belem,-1.45583,-48.50444,15,1407737,-3
3452925,BR,Porto Alegre,-30.03306,-51.23,46,1372741,-3
3462377,BR,Goiania,-16.67861,-49.25389,766,1171195,-3
3571824,BS,Nassau,25.05823,-77.34306,5,227940,-5
1252416,BT,Thimphu,27.46609,89.64191,2320,98676,6
933773,BW,Gaborone,-24.65451,25.90859,1011,208411,2
933778,BW,Francistown,-21.16995,27.50787,989,89979,2
933305,BW,Molepolole,-24.40659,25.49508,1146,63248,2
933099,BW,Selebi-Phikwe,-21.97895,27.84296,870,53727,2
933366,BW,Maun,-19.98333,23.41667,947,49945,2
933088,BW,Serowe,-22.38754,26.71077,1147,47419,2
625144,BY,Minsk,53.9,27.56667,222,1742124,3
627907,BY,Gomel,52.4345,30.9754,138,480951,3
3582677,BZ,Belize City,17.49952,-88.19756,6,61461,-6
6167865,CA,Toronto,43.70011,-79.4163,175,2600000,-5
6077243,CA,Montreal,45.50884,-73.58781,216,1600000,-5
5913490,CA,Calgary,51.05011,-114.08529,1048,1019942,-7
6094817,CA,Ottawa,45.41117,-75.69812,71,812129,-5
5946768,CA,Edmonton,53.55014,-113.46871,668,712391,-7
6075357,CA,Mississauga,43.5789,-79.6583,159,668549,-5
6091104,CA,North York,43.76681,-79.4163,180,636000,-5
6183235,CA,Winnipeg,49.8844,-97.14704,245,632063,-6
6173331,CA,Vancouver,49.24966,-123.11934,70,600000,-8
7304591,CC,West Island,-12.15681,96.82251,12,120,6.5
2314302,CD,Kinshasa,-4.32758,15.31357,281,7785965,1
922704,CD,Lubumbashi,-11.66089,27.47938,1260,1373770,2
209228,CD,Mbuji-Mayi,-6.13603,23.58979,621,874761,2
212730,CD,Kisangani,0.51528,25.19099,400,539158,2
2593460,CD,Masina,-4.38361,15.39139,288,485167,1
214481,CD,Kananga,-5.89624,22.41659,643,463546,2
2389853,CF,Bangui,4.36122,18.55496,351,542393,1
2388873,CF,Bimbo,4.25671,18.41583,371,129655,1
2384770,CF,Mbaiki,3.86781,17.98923,476,67132,1
2389086,CF,Berberati,4.26116,15.79216,599,61815,1
2386012,CF,Kaga Bandoro,6.98961,19.18744,416,56520,1
2387546,CF,Bozoum,6.31933,16.37992,664,40201,1
2260535,CG,Brazzaville,-4.26613,15.28318,284,1284609,1
2255414,CG,Pointe-Noire,-4.77609,11.86352,12,659084,1
2258261,CG,Dolisie,-4.19834,12.66664,332,103894,1
2657896,CH,Zurich,47.36667,8.55,429,341730,1
2293538,CI,Abidjan,5.30966,-4.01266,10,3677115,0
2293521,CI,Abobo,5.41613,-4.0159,105,900000,0
2290956,CI,Bouake,7.69385,-5.03031,339,567481,0
2290486,CI,Daloa,6.87735,-6.45022,262,215652,0
2282006,CI,San-Pedro,4.74851,-6.6363,9,196751,0
2279755,CI,Yamoussoukro,6.82055,-5.27674,214,194530,0
4035715,CK,Avarua,-21.20778,-159.775,6,13373,-10
3871336,CL,Santiago,-33.45694,-70.64827,556,4837295,-4
3875024,CL,Puente Alto,-33.61169,-70.57577,700,510417,-4
3899539,CL,Antofagasta,-23.65236,-70.3954,31,309832,-4
3868121,CL,Vina del Mar,-33.02457,-71.55183,17,294551,-4
3868626,CL,Valparaiso,-33.03932,-71.62725,23,282448,-4
3870282,CL,Talcahuano,-36.72494,-73.11684,15,252968,-4
3872348,CL,San Bernardo,-33.59217,-70.6996,571,249858,-4
3870011,CL,Temuco,-38.73965,-72.59842,114,238129,-4
3887127,CL,Iquique,-20.22036,-70.13913,37,227499,-4
2232593,CM,Douala,4.04827,9.70428,19,1338082,1
2220957,CM,Yaounde,3.86667,11.51667,726,1299369,1
2231320,CM,Garoua,9.30143,13.39771,199,436899,1
2229798,CM,Kousseri,12.07689,15.03063,300,435547,1
2234974,CM,Bamenda,5.9597,10.14597,1258,393835,1
2228373,CM,Maroua,10.59095,14.31593,406,319941,1
1796236,CN,Shanghai,31.22222,121.45806,12,22315474,8
1816670,CN,Beijing,39.9075,116.39723,49,11716620,8
1792947,CN,Tianjin,39.14222,117.17667,11,11090314,8
1809858,CN,Guangzhou,23.11667,113.25,15,11071424,8
1795565,CN,Shenzhen,22.54554,114.0683,4,10358381,8
1791247,CN,Wuhan,30.58333,114.26667,20,9785388,8
1812545,CN,Dongguan,23.04889,113.74472,10,8000000,8
1814906,CN,Chongqing,29.56278,106.55278,225,7457600,8
1815286,CN,Chengdu,30.66667,104.06667,499,7415590,8
1799962,CN,Nanjing,32.06167,118.77778,22,7165292,8
1800146,CN,Nanchong,30.79508,106.08473,287,7150000,8
1790630,CN,Xi'an,34.25833,108.92861,416,6501190,8
2034937,CN,Shenyang,41.79222,123.43278,53,6255921,8
1808926,CN,Hangzhou,30.29365,120.16142,12,6241971,8
2037013,CN,Harbin,45.75,126.65,140,5878939,8
3688689,CO,Bogota,4.60971,-74.08175,2582,7674366,-5
3687925,CO,Cali,3.43722,-76.5225,967,2392877,-5
3674962,CO,Medellin,6.25184,-75.56359,1405,1999979,-5
3689147,CO,Barranquilla,10.96854,-74.78132,24,1380425,-5
3687238,CO,Cartagena,10.39972,-75.51444,34,952024,-5
3685533,CO,Cucuta,7.89391,-72.50782,309,721398,-5
3688465,CO,Bucaramanga,7.12539,-73.1198,993,571820,-5
3672486,CO,Pereira,4.81333,-75.69611,1414,440118,-5
3668605,CO,Santa Marta,11.24079,-74.19904,12,431781,-5
3621849,CR,San Jose,9.93333,-84.08333,1161,335007,-6
3553478,CU,Havana,23.13302,-82.38304,41,2163824,-5
3374333,CV,Praia,14.93152,-23.51254,0,113364,-1
3513090,CW,Willemstad,12.1084,-68.93354,1,125000,-4
2078127,CX,Flying Fish Cove,-10.42172,105.67912,135,500,7
146268,CY,Nicosia,35.17531,33.3642,147,200452,2
3067696,CZ,Prague,50.08804,14.42076,202,1165581,1
2950159,DE,Berlin,52.52437,13.41053,74,3426354,1
2911298,DE,Hamburg,53.57532,10.01534,8,1739117,1
223817,DJ,Djibouti,11.58901,43.14503,6,623891,3
2618425,DK,Copenhagen,55.67594,12.56553,14,1153615,1
3575635,DM,Roseau,15.30174,-61.38808,11,16571,-4
3492908,DO,Santo Domingo,18.50012,-69.98857,55,2201941,-4
2507480,DZ,Algiers,36.7525,3.04197,186,1977663,1
2474141,DZ,Boumerdas,36.76639,3.47717,5,786499,1
2485926,DZ,Oran,35.69111,-0.64167,109,645984,1
2477461,DZ,Tebessa,35.40417,8.12417,867,634332,1
2501152,DZ,Constantine,36.365,6.61472,574,450097,1
2503826,DZ,Biskra,34.85038,5.72805,115,307987,1
2481700,DZ,Setif,36.19112,5.41373,1096,288461,1
2505572,DZ,Batna,35.55597,6.17414,1037,280798,1
2505854,DZ,Bab Ezzouar,36.72615,3.18291,20,275630,1
3657509,EC,Guayaquil,-2.20584,-79.90795,6,1952029,-5
3652462,EC,Quito,-0.22985,-78.52495,2854,1399814,-5
3658666,EC,Cuenca,-2.90055,-79.00453,2543,276964,-5
588409,EE,Tallinn,59.43696,24.75353,12,394024,2
360630,EG,Cairo,30.06263,31.24967,23,7734614,2
361058,EG,Alexandria,31.21564,29.95527,-1,3811516,2
360995,EG,Al Jizah,30.00808,31.21093,30,2443203,2
358619,EG,Port Said,31.25654,32.28411,6,538378,2
359796,EG,Suez,29.97371,32.52627,11,488125,2
360829,EG,Al Mahallah al Kubra,30.97063,31.1669,17,431052,2
360502,EG,Luxor,25.69893,32.6421,89,422407,2
359783,EG,Asyut,27.18096,31.18368,56,420585,2
360761,EG,Al Mansurah,31.03637,31.38069,15,420195,2
2462881,EH,Laayoune / El Aaiun,27.1418,-13.18797,68,196331,1
343300,ER,Asmara,15.33805,38.93184,2334,563930,3
333287,ER,Keren,15.77792,38.45107,1399,74800,3
3117735,ES,Madrid,40.4165,-3.70256,665,3255944,1
3128760,ES,Barcelona,41.38879,2.15899,15,1621537,1
2509954,ES,Valencia,39.46975,-0.37739,15,814208,1
2510911,ES,Sevilla,37.38283,-5.97317,16,703206,1
3104324,ES,Zaragoza,41.65606,-0.87734,214,674317,1
344979,ET,Addis Ababa,9.02497,38.74689,2405,2757729,3
338832,ET,Dire Dawa,9.59306,41.86611,1204,252279,3
331180,ET,Mekele,13.49667,39.47528,2068,215546,3
330186,ET,Nazret,8.55,39.26667,1627,213995,3
342884,ET,Bahir Dar,11.59364,37.39077,1799,168899,3
336014,ET,Gondar,12.6,37.46667,2201,153914,3
339219,ET,Dese,11.13333,39.63333,2494,136056,3
343137,ET,Hawassa,7.06205,38.47635,1697,133097,3
333772,ET,Jima,7.66667,36.83333,1716,128306,3
658225,FI,Helsinki,60.16952,24.93545,26,558457,2
660158,FI,Espoo,60.2052,24.6522,16,256760,2
634963,FI,Tampere,61.49911,23.78712,114,202687,2
632453,FI,Vantaa,60.29414,25.04099,18,190058,2
2198148,FJ,Suva,-18.14161,178.44149,57,77366,12
3426691,FK,Stanley,-51.7,-57.85,43,2213,-3
2081114,FM,Weno Town,7.45154,151.8468,0,13856,10
2611396,FO,Torshavn,62.00973,-6.77164,1,13200,0
2988507,FR,Paris,48.85341,2.3488,42,2138551,1
2995469,FR,Marseille,43.29695,5.38107,28,794811,1
2996944,FR,Lyon,45.74846,4.84671,173,472317,1
2972315,FR,Toulouse,43.60426,1.44367,150,433055,1
2990440,FR,Nice,43.70313,7.26608,25,338620,1
2399697,GA,Libreville,0.39241,9.45356,8,578156,1
2396518,GA,Port-Gentil,-0.71933,8.78151,4,109163,1
2400555,GA,Franceville,-1.63333,13.58357,405,42967,1
2396646,GA,Oyem,1.5995,11.57933,656,30870,1
2643741,GB,City of London,51.51279,-0.09184,27,7556900,0
2643743,GB,London,51.50853,-0.12574,25,7556900,0
3579925,GD,Saint George's,12.05644,-61.74849,6,7500,-4
611717,GE,Tbilisi,41.69411,44.83368,491,1049498,4
3382160,GF,Cayenne,4.93333,-52.33333,7,61550,-3
3042287,GG,Saint Peter Port,49.45981,-2.53527,10,16488,0
2306104,GH,Accra,5.55602,-0.1969,33,1963264,0
2298890,GH,Kumasi,6.68848,-1.62443,270,1468609,0
2294877,GH,Tamale,9.40079,-0.8393,196,360579,0
2294915,GH,Takoradi,4.88447,-1.75536,22,232919,0
2411585,GI,Gibraltar,36.14474,-5.35257,11,26544,1
3421319,GL,Nuuk,64.18347,-51.72157,5,14798,-3
3423146,GL,Ilulissat,69.21667,-51.1,11,4413,-3
2413753,GM,Brikama,13.27136,-16.64944,24,77700,0
2422488,GN,Camayenne,9.535,-13.68778,6,1871242,0
2422465,GN,Conakry,9.53795,-13.67729,13,1767200,0
2416969,GN,Nzerekore,7.75624,-8.8179,482,132728,0
2419533,GN,Kindia,10.05692,-12.86576,415,117062,0
3578959,GP,Les Abymes,16.27095,-61.50451,28,63058,-4
2310046,GQ,Bata,1.86391,9.76582,13,173046,1
264371,GR,Athens,37.97945,23.71622,70,664046,2
3426466,GS,Grytviken,-54.28111,-36.5092,4,2,-2
3598132,GT,Guatemala City,14.64072,-90.51327,1508,994938,-6
4043909,GU,Dededo Village,13.51777,144.8391,98,44943,10
2374775,GW,Bissau,11.86357,-15.59767,13,388028,0
3378644,GY,Georgetown,6.80448,-58.15527,3,235017,-4
3377408,GY,Linden,6.00809,-58.30714,4,44690,-4
1819729,HK,Hong Kong,22.28552,114.15769,3,7012738,8
3600949,HN,Tegucigalpa,14.0818,-87.20681,944,850848,-6
6618983,HR,Zagreb - Centar,45.81313,15.97753,134,800000,1
3718426,HT,Port-au-Prince,18.53917,-72.335,44,1234742,-5
3054643,HU,Budapest,47.49801,19.03991,111,1741041,1
1642911,ID,Jakarta,-6.21462,106.84513,16,8540121,7
1625822,ID,Surabaya,-7.24917,112.75083,8,2374658,7
1214520,ID,Medan,3.58333,98.66667,26,1750971,7
1650357,ID,Bandung,-6.90389,107.61861,728,1699719,7
1649378,ID,Bekasi,-6.2349,106.9896,18,1520119,7
1633070,ID,Palembang,-2.91673,104.7458,5,1441500,7
1625084,ID,Tangerang,-6.17806,106.63,18,1372124,7
1622786,ID,Makassar,-5.14,119.4221,8,1321717,8
8581443,ID,South Tangerang,-6.28862,106.71789,39,1303569,7
1627896,ID,Semarang,-6.9932,110.4203,19,1288084,7
1645524,ID,Depok,-6.4,106.81861,92,1198129,7
1633419,ID,Padang,-0.94924,100.35427,6,840352,7
2964574,IE,Dublin,53.33306,-6.24889,17,1024027,0
281184,IL,Jerusalem,31.76904,35.21633,786,801000,2
3042237,IM,Douglas,54.15,-4.48333,31,26218,0
1275339,IN,Mumbai,19.07283,72.88261,8,12691836,5.5
1273294,IN,Delhi,28.65195,77.23149,227,10927986,5.5
1277333,IN,Bengaluru,12.97194,77.59369,920,5104047,5.5
1275004,IN,Kolkata,22.56263,88.36304,11,4631392,5.5
1264527,IN,Chennai,13.08784,80.27847,14,4328063,5.5
1279233,IN,Ahmedabad,23.02579,72.58727,56,3719710,5.5
1269843,IN,Hyderabad,17.38405,78.45636,515,3597816,5.5
1259229,IN,Pune,18.51957,73.85535,554,2935744,5.5
1255364,IN,Surat,21.19594,72.83023,20,2894504,5.5
1267995,IN,Kanpur,26.46523,80.34975,131,2823249,5.5
1269515,IN,Jaipur,26.91962,75.78781,435,2711758,5.5
6619347,IN,Navi Mumbai,19.03681,73.01582,14,2600000,5.5
98182,IQ,Baghdad,33.34058,44.40088,41,7216000,3
99532,IQ,Basrah,30.50852,47.7804,4,2600000,3
99071,IQ,Al Mawsil al Jadidah,36.33306,43.1049,246,2065597,3
388349,IQ,Al Basrah al Qadimah,30.50316,47.81507,7,2015483,3
99072,IQ,Mosul,36.335,43.11889,228,1739800,3
112931,IR,Tehran,35.69439,51.42151,1178,7153309,3.5
124665,IR,Mashhad,36.31559,59.56796,1003,2307177,3.5
418863,IR,Isfahan,32.65246,51.67462,1578,1547164,3.5
128747,IR,Karaj,35.83266,50.99155,1341,1448075,3.5
113646,IR,Tabriz,38.08,46.2919,1396,1424641,3.5
115019,IR,Shiraz,29.61031,52.53113,1545,1249942,3.5
119208,IR,Qom,34.6401,50.8764,935,900000,3.5
144448,IR,Ahvaz,31.31901,48.6842,23,841145,3.5
10630176,IR,Pasragad Branch,34.77772,48.47168,1000,787878,3.5
3413829,IS,Reykjavik,64.13548,-21.89541,37,118918,0
3415212,IS,Kopavogur,64.11234,-21.91298,37,31719,0
3169070,IT,Rome,41.89193,12.51133,20,2318895,1
3173435,IT,Milano,45.46427,9.18951,122,1236837,1
3172394,IT,Napoli,40.85631,14.24641,17,959470,1
3042091,JE,Saint Helier,49.18804,-2.10491,11,28000,0
3489854,JM,Kingston,17.99702,-76.79358,65,937700,-5
250441,JO,Amman,31.95522,35.94503,757,1275857,2
1850147,JP,Tokyo,35.6895,139.69171,44,8336599,9
1848354,JP,Yokohama,35.43333,139.65,20,3574443,9
1853909,JP,Osaka,34.69374,135.50218,24,2592413,9
1856057,JP,Nagoya,35.18147,136.90641,23,2191279,9
2128295,JP,Sapporo,43.06667,141.35,17,1883027,9
184745,KE,Nairobi,-1.28333,36.81667,1684,2750547,3
186301,KE,Mombasa,-4.05466,39.66359,20,799668,3
184622,KE,Nakuru,-0.28333,36.06667,1848,259903,3
198629,KE,Eldoret,0.52036,35.26993,2095,218446,3
191245,KE,Kisumu,-0.10221,34.76171,1174,216479,3
179330,KE,Thika,-1.03326,37.06933,1506,200000,3
187968,KE,Malindi,-3.21799,40.11692,7,118265,3
1528675,KG,Bishkek,42.87,74.59,767,900000,6
1527534,KG,Osh,40.52828,72.7985,988,200000,6
1528249,KG,Jalal-Abad,40.93333,73,772,75700,6
1821306,KH,Phnom Penh,11.56245,104.91601,20,1573544,7
1821940,KH,Takeo,10.99081,104.78498,12,843931,7
1831142,KH,Sihanoukville,10.60932,103.52958,6,156691,7
2110257,KI,Tarawa,1.3278,172.97696,6,40311,12
921772,KM,Moroni,-11.70216,43.25506,27,42872,3
3575551,KN,Basseterre,17.29484,-62.7261,-22,12920,-4
1871859,KP,Pyongyang,39.03385,125.75432,43,3222000,9
1877449,KP,Hamhung,39.91833,127.53639,16,559056,9
1835848,KR,Seoul,37.566,126.9784,38,10349312,9
285839,KW,Al Ahmadi,29.07694,48.08389,70,637411,3
3580661,KY,George Town,19.2866,-81.37436,3,29370,-5
1526384,KZ,Almaty,43.25654,76.92848,787,2000900,6
609655,KZ,Karagandy,49.83333,73.1658,575,451800,6
1518980,KZ,Shymkent,42.3,69.6,513,414032,6
1516905,KZ,Taraz,42.9,71.36667,623,358153,6
1526273,KZ,Astana,51.1801,71.44598,358,345604,6
1520240,KZ,Pavlodar,52.28333,76.96667,123,329002,6
1520316,KZ,Ust-Kamenogorsk,49.97143,82.60586,287,319067,6
9862222,KZ,Kyzyl-Orda,44.8479,65.49989,129,300000,6
1519922,KZ,Kyzylorda,44.85278,65.50917,128,300000,5
1651944,LA,Vientiane,17.96667,102.6,174,196731,7
1654379,LA,Pakxe,15.12022,105.79898,105,88332,7
1653316,LA,Savannakhet,16.56505,104.75273,142,66553,7
1655559,LA,Luang Prabang,19.88601,102.13503,300,47378,7
276781,LB,Beirut,33.88894,35.49442,102,1916100,2
3576812,LC,Castries,13.9957,-61.00614,119,20000,-4
3042041,LI,Schaan,47.16498,9.50867,453,5748,1
1248991,LK,Colombo,6.93194,79.84778,9,648034,5.5
2274895,LR,Monrovia,6.30054,-10.7969,32,939524,0
2277060,LR,Gbarnga,6.99543,-9.47122,253,45835,0
932505,LS,Maseru,-29.31667,27.48333,1552,118355,2
593116,LT,Vilnius,54.68916,25.2798,98,542366,2
2960316,LU,Luxembourg,49.61167,6.13,316,76684,1
456172,LV,Riga,56.946,24.10589,6,742572,2
2210247,LY,Tripoli,32.87519,13.18746,21,1150989,2
88319,LY,Benghazi,32.11486,20.06859,3,650629,2
2214846,LY,Misratah,32.37535,15.09254,11,386120,2
2210221,LY,Tarhuna,32.43501,13.6332,391,210697,2
2219905,LY,Al Khums,32.64861,14.26191,27,201943,2
2218970,LY,Az Zawiyah,32.7571,12.72764,18,200000,2
2553604,MA,Casablanca,33.58831,-7.61138,27,3144909,1
2538475,MA,Rabat,34.01325,-6.83255,46,1655753,1
2548885,MA,Fes,34.03313,-5.00028,441,964891,1
2537763,MA,Sale,34.0531,-6.79846,34,903485,1
2542997,MA,Marrakesh,31.63416,-7.99994,457,839296,1
2993458,MC,Monaco,43.73333,7.41667,62,32965,1
618426,MD,Chisinau,47.00556,28.8575,55,635994,2
3193044,ME,Podgorica,42.44111,19.26361,49,136473,1
3194494,ME,Niksic,42.7731,18.94446,630,58212,1
1070940,MG,Antananarivo,-18.91368,47.53613,1274,1391433,3
1053384,MG,Toamasina,-18.1492,49.40234,12,206373,3
1069166,MG,Antsirabe,-19.86586,47.03333,1513,186253,3
1064890,MG,Fianarantsoa,-21.45267,47.08569,1117,167227,3
1062663,MG,Mahajanga,-15.71667,46.31667,20,154657,3
1055429,MG,Toliara,-23.35,43.66667,11,115319,3
1069129,MG,Antsiranana,-12.2787,49.29171,43,82937,3
2113779,MH,Majuro,7.08971,171.38027,6,25400,12
785842,MK,Skopje,41.99646,21.43141,247,474889,1
2460596,ML,Bamako,12.65,-8,338,1297281,0
2451185,ML,Sikasso,11.31755,-5.66654,368,144786,0
2453348,ML,Mopti,14.4843,-4.18296,268,108456,0
2454268,ML,Koutiala,12.39173,-5.46421,351,99353,0
2451478,ML,Segou,13.4317,-6.2157,288,92552,0
2457163,ML,Gao,16.27167,-0.04472,257,87000,0
1298824,MM,Yangon,16.80528,96.15611,30,4477638,6.5
1311874,MM,Mandalay,21.97473,96.08359,83,1208099,6.5
6611854,MM,Nay Pyi Taw,19.745,96.12972,122,925000,6.5
1308465,MM,Mawlamyine,16.49051,97.62825,52,438861,6.5
1300466,MM,Bago,17.33521,96.48135,18,244376,6.5
1328421,MM,Pathein,16.77919,94.73212,8,237089,6.5
2028462,MN,Ulaanbaatar,47.90771,106.88324,1284,844818,8
2031405,MN,Erdenet,49.03333,104.08333,1307,79647,8
2031964,MN,Darhan,49.48667,105.92278,683,74300,8
1516048,MN,Khovd,48.00556,91.64194,1395,30500,7
1515436,MN,OElgiy,48.96833,89.9625,1715,28400,7
1515029,MN,Ulaangom,49.98111,92.06667,935,28085,7
2030474,MN,Hovd,44.67024,102.17491,1525,27924,8
2029945,MN,Murun-kuren,49.63417,100.1625,1280,27690,8
2032533,MN,Bayanhongor,46.19444,100.71806,1873,26252,8
1821274,MO,Macau,22.20056,113.54611,22,520400,8
7828758,MP,Saipan,15.21233,145.7545,5,48220,10
3570675,MQ,Fort-de-France,14.60892,-61.07334,6,89995,-4
2377450,MR,Nouakchott,18.08581,-15.9785,10,661400,0
2377457,MR,Nouadhibou,20.93098,-17.03465,5,72337,0
7266440,MS,Brades,16.79183,-62.21058,52,1000,-4
2563191,MT,Birkirkara,35.89722,14.46111,41,21676,1
934154,MU,Port Louis,-20.16194,57.49889,3,155226,4
1282027,MV,Male,4.1748,73.50888,8,103693,5
927967,MW,Lilongwe,-13.96692,33.78725,1056,646750,2
931755,MW,Blantyre,-15.78499,35.00854,1041,584877,2
3530597,MX,Mexico City,19.42847,-99.12766,2240,12294193,-6
3526683,MX,Iztapalapa,19.35738,-99.0671,2239,1820888,-6
3529612,MX,Ecatepec,19.61725,-99.06601,2274,1806226,-6
4005539,MX,Guadalajara,20.66682,-103.39182,1598,1640589,-6
3521081,MX,Puebla,19.04334,-98.20193,2152,1590256,-6
4013708,MX,Ciudad Juarez,31.73333,-106.48333,1126,1512354,-7
3981609,MX,Tijuana,32.5027,-117.00371,97,1376457,-8
3530589,MX,Ciudad Nezahualcoyotl,19.40061,-99.01483,2235,1232220,-6
3514674,MX,Gustavo A. Madero,19.49016,-99.10978,2248,1193161,-6
3482969,MX,Gustavo A. Madero,22.8694,-98.75886,60,1185772,-6
3995465,MX,Monterrey,25.67507,-100.31847,543,1122874,-6
3998655,MX,Leon,21.13052,-101.671,1807,1114626,-6
1736376,MY,Kota Bharu,6.13328,102.2386,10,1459994,8
1735161,MY,Kuala Lumpur,3.1412,101.68653,56,1453975,8
1732905,MY,Klang,3.03333,101.45,6,879867,8
1771023,MY,Kampung Baru Subang,3.15,101.53333,27,833571,8
1040652,MZ,Maputo,-25.96553,32.58322,70,1191613,2
1039854,MZ,Matola,-25.96222,32.45889,42,675422,2
1052373,MZ,Beira,-19.84361,34.83889,6,530604,2
1033356,MZ,Nampula,-15.11646,39.2666,431,388526,2
3352136,NA,Windhoek,-22.55941,17.08323,1656,268132,2
3353383,NA,Rundu,-17.93333,19.76667,1110,58172,2
3359638,NA,Walvis Bay,-22.9575,14.50528,6,52058,2
3354021,NA,Oshakati,-17.78333,15.68333,1099,33618,2
3352844,NA,Swakopmund,-22.68333,14.53333,14,25047,2
877178,NA,Katima Mulilo,-17.5,24.26667,946,25027,2
2139521,NC,Noumea,-22.27631,166.4572,11,93060,11
2440485,NE,Niamey,13.51366,2.1098,206,774235,1
2437798,NE,Zinder,13.80716,8.9881,460,191424,1
2441291,NE,Maradi,13.5,7.10174,360,163487,1
2448085,NE,Agadez,16.97333,7.99111,505,124324,1
2447938,NE,Alaghsas,17.0187,8.0168,519,88561,1
2439376,NE,Tahoua,14.8888,5.2692,389,80425,1
2161314,NF,Kingston,-29.05459,167.96628,71,880,11
2332459,NG,Lagos,6.45407,3.39467,11,9000000,1
2335204,NG,Kano,12.00012,8.51672,484,3626068,1
2339354,NG,Ibadan,7.37756,3.90591,181,3565108,1
2335727,NG,Kaduna,10.52641,7.43879,626,1582102,1
2324774,NG,Port Harcourt,4.77742,7.0134,16,1148665,1
2347283,NG,Benin City,6.33815,5.62575,88,1125058,1
2331447,NG,Maiduguri,11.84692,13.15712,325,1112449,1
2317765,NG,Zaria,11.11128,7.7227,644,975153,1
2353151,NG,Aba,5.10658,7.36667,64,897560,1
3617763,NI,Managua,12.13282,-86.2504,108,973087,-6
2759794,NL,Amsterdam,52.37403,4.88969,13,741636,1
3143244,NO,Oslo,59.91273,10.74609,26,580000,1
3161732,NO,Bergen,60.39299,5.32415,20,213585,1
3133880,NO,Trondheim,63.43049,10.39506,18,147139,1
3137115,NO,Stavanger,58.97005,5.73332,15,121610,1
1283240,NP,Kathmandu,27.70169,85.3206,1317,1442271,5.75
1282898,NP,Pokhara,28.26689,83.96851,1008,200000,5.75
7626485,NR,Arijejen,-0.52545,166.91247,5,2381,12
4036284,NU,Alofi,-19.05952,-169.91867,67,624,-11
2193733,NZ,Auckland,-36.86667,174.76667,79,417910,12
2179537,NZ,Wellington,-41.28664,174.77557,31,381900,12
2192362,NZ,Christchurch,-43.53333,172.63333,14,363926,12
287286,OM,Muscat,23.61387,58.5922,7,797000,4
288967,OM,Seeb,23.67027,58.18911,7,237816,4
286621,OM,Salalah,17.01505,54.09237,13,163140,4
288764,OM,Bawshar,23.55563,58.3989,80,159487,4
3703443,PA,Panama,8.9936,-79.51973,17,408168,-5
3936456,PE,Lima,-12.04318,-77.02824,152,7737002,-5
3947322,PE,Arequipa,-16.39889,-71.535,2355,841130,-5
3946083,PE,Callao,-12.05659,-77.11814,27,813264,-5
3691175,PE,Trujillo,-8.11599,-79.02998,31,747450,-5
3698350,PE,Chiclayo,-6.77137,-79.84088,35,577375,-5
3696183,PE,Iquitos,-3.74912,-73.25383,92,437620,-5
3939459,PE,Huancayo,-12.06513,-75.20486,3263,376657,-5
3693528,PE,Piura,-5.19449,-80.63282,33,325466,-5
3698304,PE,Chimbote,-9.08528,-78.57833,9,316966,-5
3941584,PE,Cusco,-13.52264,-71.96734,3369,312140,-5
3693345,PE,Pucallpa,-8.37915,-74.55387,155,310750,-5
3928128,PE,Tacna,-18.01465,-70.25362,567,280098,-5
4034561,PF,Faaa,-17.55,-149.6,5,29851,-10
2088122,PG,Port Moresby,-9.44314,147.17972,79,283733,10
2092740,PG,Lae,-6.72208,146.98469,16,76255,10
2100633,PG,Arawa,-6.22977,155.56598,28,40266,11
2090409,PG,Mount Hagen,-5.85746,144.23058,1728,33623,10
2088163,PG,Popondetta,-8.76536,148.23252,106,28198,10
2091996,PG,Madang,-5.21639,145.7987,1,27419,10
1701668,PH,Manila,14.6042,120.9822,13,10444527,8
1692192,PH,Quezon City,14.6488,121.0509,49,2761720,8
1723510,PH,Budta,7.20417,124.43972,4,1273715,8
1174872,PK,Karachi,24.9056,67.0822,38,11624219,5
1172451,PK,Lahore,31.54972,74.34361,224,6310888,5
1179400,PK,Faisalabad,31.41667,73.08333,186,2506595,5
1166993,PK,Rawalpindi,33.6007,73.0679,493,1743101,5
1169825,PK,Multan,30.19556,71.47528,129,1437230,5
1176734,PK,Hyderabad,25.39242,68.37366,40,1386330,5
1177662,PK,Gujranwala,32.16167,74.18831,231,1384471,5
1168197,PK,Peshawar,34.008,71.57849,340,1218773,5
1167528,PK,Quetta,30.199,67.00971,1682,733675,5
756135,PL,Warsaw,52.22977,21.01178,113,1702139,2
3093133,PL,Lodz,51.75,19.46667,192,768755,2
3094802,PL,Krakow,50.06143,19.93658,219,755050,2
3424934,PM,Saint-Pierre,46.77914,-56.1773,30,6200,-3
4030723,PN,Adamstown,-25.06597,-130.10147,67,46,-8
4568127,PR,San Juan,18.46633,-66.10572,7,418140,-4
7303419,PS,East Jerusalem,31.78336,35.23388,759,428304,2
2267057,PT,Lisbon,38.71667,-9.13333,45,517802,0
1559446,PW,Koror,7.33978,134.47326,20,14000,9
3439389,PY,Asuncion,-25.30066,-57.63591,133,1482200,-4
3439101,PY,Ciudad del Este,-25.50972,-54.61111,186,320782,-4
3437056,PY,San Lorenzo,-25.33968,-57.50879,119,227876,-4
3439214,PY,Capiata,-25.3552,-57.44545,130,198553,-4
3437863,PY,Lambare,-25.34682,-57.60647,119,126377,-4
290030,QA,Doha,25.27932,51.52245,13,344939,3
935264,RE,Saint-Denis,-20.88231,55.4504,44,137195,4
683506,RO,Bucharest,44.43225,26.10626,83,1877155,2
675810,RO,Iasi,47.16667,27.6,66,318012,2
792680,RS,Belgrade,44.80401,20.46513,120,1273651,1
524901,RU,Moscow,55.75222,37.61556,144,10381222,3
498817,RU,Saint Petersburg,59.93863,30.31413,11,5028000,3
1496747,RU,Novosibirsk,55.0415,82.9346,164,1419007,7
1486209,RU,Yekaterinburg,56.8519,60.6122,255,1349772,5
520555,RU,Nizhniy Novgorod,56.32867,44.00205,141,1284164,3
499099,RU,Samara,53.20007,50.15,117,1134730,4
1496153,RU,Omsk,54.99244,73.36859,90,1129281,6
551487,RU,Kazan,55.78874,49.12214,61,1104738,3
501175,RU,Rostov-na-Donu,47.23135,39.72328,74,1074482,3
1508291,RU,Chelyabinsk,55.15402,61.42915,219,1062919,5
479561,RU,Ufa,54.74306,55.96779,158,1033338,5
472757,RU,Volgograd,48.71939,44.50183,65,1011417,4
202061,RW,Kigali,-1.94995,30.05885,1542,745261,2
108410,SA,Riyadh,24.68773,46.72185,612,4205961,3
105343,SA,Jeddah,21.54238,39.19797,21,2867446,3
104515,SA,Mecca,21.42664,39.82563,333,1323624,3
109223,SA,Medina,24.46861,39.61417,603,1300000,3
101760,SA,Sultanah,24.49258,39.58572,597,946697,3
110336,SA,Dammam,26.43442,50.10326,10,768602,3
2108502,SB,Honiara,-9.43333,159.95,49,56298,11
241131,SC,Victoria,-4.61667,55.45,60,22881,4
379252,SD,Khartoum,15.55177,32.53241,381,1974647,2
365137,SD,Omdurman,15.64453,32.47773,391,1200000,2
377039,SD,Port Sudan,19.61745,37.21644,10,489725,2
372753,SD,Kassala,15.45099,36.39998,507,401477,2
379003,SD,El Obeid,13.18421,30.21669,573,393311,2
379062,SD,Al Qadarif,14.03493,35.38344,608,363945,2
2673730,SE,Stockholm,59.33258,18.0649,28,1253309,1
2711537,SE,Goeteborg,57.70716,11.96679,10,504084,1
2692969,SE,Malmoe,55.60587,13.00073,10,261548,1
2666199,SE,Uppsala,59.85882,17.63889,20,127734,1
2664454,SE,Vasteras,59.61617,16.55276,16,107194,1
1880252,SG,Singapore,1.28967,103.85007,23,3547809,8
3370903,SH,Jamestown,-15.93872,-5.71675,10,637,0
3196359,SI,Ljubljana,46.05108,14.50513,295,272220,1
2729907,SJ,Longyearbyen,78.22334,15.64689,1,2060,1
3060972,SK,Bratislava,48.14816,17.10674,157,423737,1
2409306,SL,Freetown,8.484,-13.22994,49,802639,0
3166645,SM,Serravalle,43.96897,12.48167,119,9258,1
2253354,SN,Dakar,14.6937,-17.44406,12,2476400,0
2246678,SN,Pikine,14.76457,-17.39071,17,874062,0
2244322,SN,Touba,14.85,-15.88333,46,529176,0
53654,SO,Mogadishu,2.03711,45.34375,12,2587183,3
57289,SO,Hargeysa,9.56,44.065,1261,477876,3
64435,SO,Berbera,10.43959,45.01432,11,242344,3
55671,SO,Kismayo,-0.35817,42.54536,11,234852,3
54225,SO,Marka,1.71594,44.77166,12,230100,3
56399,SO,Jamaame,0.06968,42.74497,12,185270,3
3383330,SR,Paramaribo,5.86638,-55.16682,5,223757,-3
3383714,SR,Lelydorp,5.7,-55.23333,8,18223,-3
373303,SS,Juba,4.85165,31.58247,518,300000,3
370737,SS,Malakal,9.53342,31.66049,400,160765,3
363885,SS,Wau,7.70286,27.9953,441,127384,3
2410763,ST,Sao Tome,0.33654,6.72732,8,53300,0
3583361,SV,San Salvador,13.68935,-89.18718,653,525990,-6
3513794,SX,Cul de Sac,18.03868,-63.06542,18,8467,-4
170063,SY,Aleppo,36.20124,37.16117,401,1602264,2
170654,SY,Damascus,33.5102,36.29128,701,1569394,2
934995,SZ,Manzini,-26.49884,31.38004,601,110537,2
3576994,TC,Cockburn Town,21.46122,-71.14188,7,3720,-5
2427123,TD,N'Djamena,12.10672,15.0444,299,721081,1
2427455,TD,Moundou,8.56667,16.08333,401,135167,1
2425791,TD,Sagh,9.1429,18.3923,369,102528,1
245785,TD,Abeche,13.82916,20.8324,545,74188,1
2430506,TD,Kelo,9.30859,15.80658,375,42533,1
2429605,TD,Koumra,8.91256,17.55392,399,36263,1
1546102,TF,Port-aux-Francais,-49.35,70.21667,7,45,5
2365267,TG,Lome,6.13748,1.21227,6,749700,0
1609350,TH,Bangkok,13.75398,100.50144,12,5104476,7
1606590,TH,Samut Prakan,13.59934,100.59675,5,388920,7
1608133,TH,Mueang Nonthaburi,13.86075,100.51477,1,291555,7
1605239,TH,Udon Thani,17.41567,102.78589,177,247231,7
1611110,TH,Chon Buri,13.3622,100.98345,8,219164,7
1608529,TH,Nakhon Ratchasima,14.97066,102.10196,187,208781,7
1221874,TJ,Dushanbe,38.53575,68.77905,767,679400,5
1514879,TJ,Khujand,40.28256,69.62216,340,144865,5
7522183,TK,Atafu Village,-8.54212,-172.51591,10,524,13
1645457,TL,Dili,-8.55861,125.57361,3,150000,9
162183,TM,Ashgabat,37.95,58.38333,219,727700,5
1219649,TM,Turkmenabat,39.07328,63.57861,191,234817,5
601734,TM,Dasoguz,41.83625,59.96661,87,166500,5
1218667,TM,Mary,37.59378,61.83031,223,114680,5
161616,TM,Balkanabat,39.51075,54.36713,11,87822,5
2464470,TN,Tunis,36.81897,10.16579,23,693210,1
2467454,TN,Sfax,34.74056,10.76028,8,277278,1
4032402,TO,Nuku'alofa,-21.13938,-175.2018,5,22400,13
745044,TR,Istanbul,41.01384,28.94966,39,11174257,3
323786,TR,Ankara,39.91987,32.85427,850,3517182,3
311046,TR,Izmir,38.41273,27.13838,122,2500603,3
750269,TR,Bursa,40.19559,29.06013,155,1412701,3
325363,TR,Adana,37.00167,35.32889,41,1248988,3
314830,TR,Gaziantep,37.05944,37.3825,842,1065975,3
306571,TR,Konya,37.87135,32.48464,1030,875530,3
3574309,TT,Laventille,10.64917,-61.49889,28,157258,-4
2110394,TV,Funafuti,-8.52425,179.19417,7,4492,12
1668341,TW,Taipei,25.04776,121.53185,10,7871900,8
160263,TZ,Dar es Salaam,-6.82349,39.26951,24,2698652,3
152224,TZ,Mwanza,-2.51667,32.9,1144,436801,3
148730,TZ,Zanzibar,-6.16394,39.19793,14,403658,3
161325,TZ,Arusha,-3.36667,36.68333,1415,341136,3
154380,TZ,Mbeya,-8.9,33.45,1697,291649,3
153220,TZ,Morogoro,-6.82102,37.66122,504,250902,3
149606,TZ,Tanga,-5.06893,39.09875,22,224876,3
160196,TZ,Dodoma,-6.17221,35.73947,1125,180541,3
157738,TZ,Kigoma,-4.87694,29.62667,769,164268,3
703448,UA,Kiev,50.45466,30.5238,187,2797553,2
706483,UA,Kharkiv,49.98081,36.25272,113,1430885,2
709930,UA,Dnipropetrovsk,48.45,34.98333,140,1032822,2
709717,UA,Donetsk,48.023,37.80224,223,1024700,2
698740,UA,Odessa,46.47747,30.73262,58,1001558,2
687700,UA,Zaporizhzhya,47.82289,35.19031,84,796217,2
232422,UG,Kampala,0.31628,32.58219,1223,1353189,3
233346,UG,Gulu,2.77457,32.29899,1104,146858,3
230166,UG,Lira,2.2499,32.89985,1104,119323,3
5128581,US,New York City,40.71427,-74.00597,10,8175133,-5
5368361,US,Los Angeles,34.05223,-118.24368,89,3792621,-8
4887398,US,Chicago,41.85003,-87.65005,179,2695598,-6
5110302,US,Brooklyn,40.6501,-73.94958,15,2300664,-5
5133273,US,Borough of Queens,40.68149,-73.83652,12,2272771,-5
4699066,US,Houston,29.76328,-95.36327,12,2099451,-6
4560349,US,Philadelphia,39.95233,-75.16379,12,1526006,-5
5125771,US,Manhattan,40.78343,-73.96625,35,1487536,-5
5308655,US,Phoenix,33.44838,-112.07404,331,1445632,-7
5110266,US,The Bronx,40.84985,-73.86641,23,1385108,-5
4726206,US,San Antonio,29.42412,-98.49363,198,1327407,-6
5391811,US,San Diego,32.71533,-117.15726,20,1307402,-8
4684888,US,Dallas,32.78306,-96.80667,128,1197816,-6
5392171,US,San Jose,37.33939,-121.89496,26,945942,-8
4259418,US,Indianapolis,39.76838,-86.15804,218,829718,-5
3441575,UY,Montevideo,-34.90328,-56.18816,34,1270737,-3
3440714,UY,Salto,-31.38333,-57.96667,18,99823,-3
1512569,UZ,Tashkent,41.26465,69.21627,424,1978028,5
1513157,UZ,Namangan,40.9983,71.67257,442,432456,5
1216265,UZ,Samarqand,39.65417,66.95972,719,319366,5
1514588,UZ,Andijon,40.78206,72.34424,494,318419,5
1217662,UZ,Bukhara,39.77472,64.42861,229,247644,5
6691831,VA,Vatican City,41.90236,12.45332,55,829,1
3577887,VC,Kingstown,13.15872,-61.22475,14,24518,-4
3646738,VE,Caracas,10.48801,-66.87919,887,3000000,-4
3633009,VE,Maracaibo,10.66663,-71.61245,2,2225000,-4
3632998,VE,Maracay,10.23535,-67.59113,549,1754256,-4
3625549,VE,Valencia,10.16202,-68.00765,457,1385083,-4
3648522,VE,Barquisimeto,10.07389,-69.32278,574,809490,-4
3645528,VE,Ciudad Guayana,8.35122,-62.64102,103,746535,-4
3648559,VE,Barcelona,10.13625,-64.68618,3,424795,-4
3778045,VE,Maturin,9.74569,-63.18323,71,410972,-4
3629672,VE,Puerto La Cruz,10.21667,-64.61667,27,370000,-4
8533874,VG,Tortola,18.43882,-64.60382,288,23908,-4
4796512,VI,Saint Croix,17.72751,-64.74698,87,50601,-4
1566083,VN,Ho Chi Minh City,10.82302,106.62965,7,3467331,7
1581130,VN,Hanoi,21.0245,105.84117,10,1431270,7
1583992,VN,Da Nang,16.06778,108.22083,11,752493,7
1581298,VN,Haiphong,20.86481,106.68345,12,602695,7
2135171,VU,Port-Vila,-17.73381,168.32188,59,35901,11
4034821,WF,Mata-Utu,-13.28163,-176.17453,15,1200,12
4035413,WS,Apia,-13.83333,-171.76666,9,40407,13
786714,XK,Pristina,42.67272,21.16688,597,550000,1
71137,YE,Sanaa,15.35472,44.20667,2253,1937451,3
79415,YE,Al Hudaydah,14.79781,42.95452,10,617871,3
70225,YE,Ta`izz,13.57952,44.02091,1400,615222,3
415189,YE,Aden,12.77944,45.03667,16,550602,3
78754,YE,Al Mukalla,14.54248,49.12424,39,258132,3
74477,YE,Ibb,13.96667,44.18333,1931,234837,3
76184,YE,Dhamar,14.54274,44.40514,2421,160114,3
921815,YT,Mamoudzou,-12.78234,45.22878,23,54831,3
3369157,ZA,Cape Town,-33.92584,18.42322,25,3433441,2
1007311,ZA,Durban,-29.8579,31.0292,21,3120282,2
993800,ZA,Johannesburg,-26.20227,28.04363,1767,2026469,2
953781,ZA,Soweto,-26.26781,27.85849,1632,1695047,2
964137,ZA,Pretoria,-25.74486,28.18783,1332,1619438,2
964420,ZA,Port Elizabeth,-33.91799,25.57007,37,967677,2
965301,ZA,Pietermaritzburg,-29.61679,30.39278,636,750845,2
1020098,ZA,Benoni,-26.18848,28.32078,1641,605344,2
949880,ZA,Tembisa,-25.99636,28.2268,1577,511655,2
909137,ZM,Lusaka,-15.40669,28.28713,1277,1267440,2
911148,ZM,Kitwe,-12.80243,28.21323,1224,400914,2
901344,ZM,Ndola,-12.95867,28.63659,1307,394518,2
916095,ZM,Kabwe,-14.4469,28.44644,1191,188979,2
919009,ZM,Chingola,-12.52897,27.88382,1363,148564,2
905395,ZM,Mufulira,-12.54982,28.24071,1285,120500,2
890299,ZW,Harare,-17.82772,31.05337,1494,1542813,2
894701,ZW,Bulawayo,-20.15,28.58333,1348,699385,2
1106542,ZW,Chitungwiza,-18.01274,31.07555,1435,340360,2
884979,ZW,Mutare,-18.9707,32.67086,1116,184205,2
890422,ZW,Gweru,-19.45,29.81667,1412,146073,2
1085510,ZW,Epworth,-17.89,31.1475,1508,123250,2
